[
  {
    "name": "Sunnyvale",
    "lat": 37.36883,
    "lon": -122.03635
  },
  {
    "name": "Belmont",
    "lat": 37.520214,
    "lon": -122.2758
  },
  {
    "name": "Santa Barbara",
    "lat": 34.42083,
    "lon": -119.69819
  },
  {
    "name": "Los Angeles",
    "lat": 34.052235,
    "lon": -118.243683
  },
  {
    "name": "Carmel",
    "lat": 36.555239,
    "lon": -121.923288
  },
  {
    "name": "Napa",
    "lat": 38.297539,
    "lon": -122.286865
  },
  {
    "name": "Yosemite",
    "lat": 37.865101,
    "lon": -119.53833
  },
  {
    "name": "San Francisco",
    "lat": 37.774929,
    "lon": -122.419416
  },
  {
    "name": "Hong Kong",
    "lat": 22.3193039,
    "lon": 114.1693611
  },
  {
    "name": "Guangzhou",
    "lat": 23.12911,
    "lon": 113.264385
  },
  {
    "name": "Suzhou",
    "lat": 31.29834,
    "lon": 120.58319
  },
  {
    "name": "Shanghai",
    "lat": 31.230416,
    "lon": 121.473701
  },
  {
    "name": "Banff",
    "lat": 51.178363,
    "lon": -115.570769
  },
  {
    "name": "Vancouver",
    "lat": 49.282729,
    "lon": -123.120738
  },
  {
    "name": "Los Cabos",
    "lat": 22.890533,
    "lon": -109.916737
  },
  {
    "name": "Las Vegas",
    "lat": 36.169941,
    "lon": -115.13983
  },
  {
    "name": "Montreal",
    "lat": 45.501689,
    "lon": -73.567256
  },
  {
    "name": "Quebec City",
    "lat": 46.813878,
    "lon": -71.207981
  }
]
